<?xml version="1.0" encoding="UTF-8"?>
<kml xmlns="http://earth.google.com/kml/2.0">
<Document>
<Placemark>
<name>L 96 Ruisbroek Station</name>
<Point><coordinates>4.295352,50.791329,0</coordinates></Point>
</Placemark>
<Placemark>
<name>L 96 Ruisbroek Vorming-Emile Path?</name>
<Point><coordinates>4.303743,50.800574,0</coordinates></Point>
</Placemark>
<Placemark>
<name>L 96E Jozef Huysmansstraat</name>
<Point><coordinates>4.277022,50.769237,0</coordinates></Point>
</Placemark>
<Placemark>
<name>L 96E Oprijplaats Lot</name>
<Point><coordinates>4.271163,50.765641,0</coordinates></Point>
</Placemark>
<Placemark>
<name>L 96E Vaartweg Beersel</name>
<Point><coordinates>4.276302,50.769893,0</coordinates></Point>
</Placemark>
</Document>
</kml>